[{"index":0,"office":"potus","district":"0","latitude":46.607469,"longitude":-94.351646,"precincts":"potus-results-geo.json","overlay":"counties.json","name":"President"},
{"index":1,"office":"senate","district":"0","latitude":46.607469,"longitude":-94.351646,"precincts":"senate-results-geo.json","overlay":"counties.json","name":"U.S. Senator"},
{"index":2,"office":"congress","district":"1","latitude":46.607469,"longitude":-94.351646,"precincts":"congress-results-geo.json","overlay":"congress2022.json","name":"Congressional District 1"},
{"index":3,"office":"congress","district":"2","latitude":46.607469,"longitude":-94.351646,"precincts":"congress-results-geo.json","overlay":"congress2022.json","name":"Congressional District 2"},
{"index":4,"office":"congress","district":"3","latitude":46.607469,"longitude":-94.351646,"precincts":"congress-results-geo.json","overlay":"congress2022.json","name":"Congressional District 3"},
{"index":5,"office":"congress","district":"4","latitude":46.607469,"longitude":-94.351646,"precincts":"congress-results-geo.json","overlay":"congress2022.json","name":"Congressional District 4"},
{"index":6,"office":"congress","district":"5","latitude":46.607469,"longitude":-94.351646,"precincts":"congress-results-geo.json","overlay":"congress2022.json","name":"Congressional District 5"},
{"index":7,"office":"congress","district":"6","latitude":46.607469,"longitude":-94.351646,"precincts":"congress-results-geo.json","overlay":"congress2022.json","name":"Congressional District 6"},
{"index":8,"office":"congress","district":"7","latitude":46.607469,"longitude":-94.351646,"precincts":"congress-results-geo.json","overlay":"congress2022.json","name":"Congressional District 7"},
{"index":9,"office":"congress","district":"8","latitude":46.607469,"longitude":-94.351646,"precincts":"congress-results-geo.json","overlay":"congress2022.json","name":"Congressional District 8"},
{"index":10,"office":"mnleg","district":"1A","latitude":46.607469,"longitude":-94.351646,"precincts":"mnleg-results-geo.json","overlay":"house2022.json","name":"State House District 01A"},
{"index":11,"office":"mnleg","district":"1B","latitude":46.607469,"longitude":-94.351646,"precincts":"mnleg-results-geo.json","overlay":"house2022.json","name":"State House District 01B"},
{"index":12,"office":"mnleg","district":"2A","latitude":46.607469,"longitude":-94.351646,"precincts":"mnleg-results-geo.json","overlay":"house2022.json","name":"State House District 02A"},
{"index":13,"office":"mnleg","district":"2B","latitude":46.607469,"longitude":-94.351646,"precincts":"mnleg-results-geo.json","overlay":"house2022.json","name":"State House District 02B"},
{"index":14,"office":"mnleg","district":"3A","latitude":46.607469,"longitude":-94.351646,"precincts":"mnleg-results-geo.json","overlay":"house2022.json","name":"State House District 03A"},
{"index":15,"office":"mnleg","district":"3B","latitude":46.607469,"longitude":-94.351646,"precincts":"mnleg-results-geo.json","overlay":"house2022.json","name":"State House District 03B"},
{"index":16,"office":"mnleg","district":"4A","latitude":46.607469,"longitude":-94.351646,"precincts":"mnleg-results-geo.json","overlay":"house2022.json","name":"State House District 04A"},
{"index":17,"office":"mnleg","district":"4B","latitude":46.607469,"longitude":-94.351646,"precincts":"mnleg-results-geo.json","overlay":"house2022.json","name":"State House District 04B"},
{"index":18,"office":"mnleg","district":"5A","latitude":46.607469,"longitude":-94.351646,"precincts":"mnleg-results-geo.json","overlay":"house2022.json","name":"State House District 05A"},
{"index":19,"office":"mnleg","district":"5B","latitude":46.607469,"longitude":-94.351646,"precincts":"mnleg-results-geo.json","overlay":"house2022.json","name":"State House District 05B"},
{"index":20,"office":"mnleg","district":"6A","latitude":46.607469,"longitude":-94.351646,"precincts":"mnleg-results-geo.json","overlay":"house2022.json","name":"State House District 06A"},
{"index":21,"office":"mnleg","district":"6B","latitude":46.607469,"longitude":-94.351646,"precincts":"mnleg-results-geo.json","overlay":"house2022.json","name":"State House District 06B"},
{"index":22,"office":"mnleg","district":"7A","latitude":46.607469,"longitude":-94.351646,"precincts":"mnleg-results-geo.json","overlay":"house2022.json","name":"State House District 07A"},
{"index":23,"office":"mnleg","district":"7B","latitude":46.607469,"longitude":-94.351646,"precincts":"mnleg-results-geo.json","overlay":"house2022.json","name":"State House District 07B"},
{"index":24,"office":"mnleg","district":"8A","latitude":46.607469,"longitude":-94.351646,"precincts":"mnleg-results-geo.json","overlay":"house2022.json","name":"State House District 08A"},
{"index":25,"office":"mnleg","district":"8B","latitude":46.607469,"longitude":-94.351646,"precincts":"mnleg-results-geo.json","overlay":"house2022.json","name":"State House District 08B"},
{"index":26,"office":"mnleg","district":"9A","latitude":46.607469,"longitude":-94.351646,"precincts":"mnleg-results-geo.json","overlay":"house2022.json","name":"State House District 09A"},
{"index":27,"office":"mnleg","district":"9B","latitude":46.607469,"longitude":-94.351646,"precincts":"mnleg-results-geo.json","overlay":"house2022.json","name":"State House District 09B"},
{"index":28,"office":"mnleg","district":"10A","latitude":46.607469,"longitude":-94.351646,"precincts":"mnleg-results-geo.json","overlay":"house2022.json","name":"State House District 10A"},
{"index":29,"office":"mnleg","district":"10B","latitude":46.607469,"longitude":-94.351646,"precincts":"mnleg-results-geo.json","overlay":"house2022.json","name":"State House District 10B"},
{"index":30,"office":"mnleg","district":"11A","latitude":46.607469,"longitude":-94.351646,"precincts":"mnleg-results-geo.json","overlay":"house2022.json","name":"State House District 11A"},
{"index":31,"office":"mnleg","district":"11B","latitude":46.607469,"longitude":-94.351646,"precincts":"mnleg-results-geo.json","overlay":"house2022.json","name":"State House District 11B"},
{"index":32,"office":"mnleg","district":"12A","latitude":46.607469,"longitude":-94.351646,"precincts":"mnleg-results-geo.json","overlay":"house2022.json","name":"State House District 12A"},
{"index":33,"office":"mnleg","district":"12B","latitude":46.607469,"longitude":-94.351646,"precincts":"mnleg-results-geo.json","overlay":"house2022.json","name":"State House District 12B"},
{"index":34,"office":"mnleg","district":"13A","latitude":46.607469,"longitude":-94.351646,"precincts":"mnleg-results-geo.json","overlay":"house2022.json","name":"State House District 13A"},
{"index":35,"office":"mnleg","district":"13B","latitude":46.607469,"longitude":-94.351646,"precincts":"mnleg-results-geo.json","overlay":"house2022.json","name":"State House District 13B"},
{"index":36,"office":"mnleg","district":"14A","latitude":46.607469,"longitude":-94.351646,"precincts":"mnleg-results-geo.json","overlay":"house2022.json","name":"State House District 14A"},
{"index":37,"office":"mnleg","district":"14B","latitude":46.607469,"longitude":-94.351646,"precincts":"mnleg-results-geo.json","overlay":"house2022.json","name":"State House District 14B"},
{"index":38,"office":"mnleg","district":"15A","latitude":46.607469,"longitude":-94.351646,"precincts":"mnleg-results-geo.json","overlay":"house2022.json","name":"State House District 15A"},
{"index":39,"office":"mnleg","district":"15B","latitude":46.607469,"longitude":-94.351646,"precincts":"mnleg-results-geo.json","overlay":"house2022.json","name":"State House District 15B"},
{"index":40,"office":"mnleg","district":"16A","latitude":46.607469,"longitude":-94.351646,"precincts":"mnleg-results-geo.json","overlay":"house2022.json","name":"State House District 16A"},
{"index":41,"office":"mnleg","district":"16B","latitude":46.607469,"longitude":-94.351646,"precincts":"mnleg-results-geo.json","overlay":"house2022.json","name":"State House District 16B"},
{"index":42,"office":"mnleg","district":"17A","latitude":46.607469,"longitude":-94.351646,"precincts":"mnleg-results-geo.json","overlay":"house2022.json","name":"State House District 17A"},
{"index":43,"office":"mnleg","district":"17B","latitude":46.607469,"longitude":-94.351646,"precincts":"mnleg-results-geo.json","overlay":"house2022.json","name":"State House District 17B"},
{"index":44,"office":"mnleg","district":"18A","latitude":46.607469,"longitude":-94.351646,"precincts":"mnleg-results-geo.json","overlay":"house2022.json","name":"State House District 18A"},
{"index":45,"office":"mnleg","district":"18B","latitude":46.607469,"longitude":-94.351646,"precincts":"mnleg-results-geo.json","overlay":"house2022.json","name":"State House District 18B"},
{"index":46,"office":"mnleg","district":"19A","latitude":46.607469,"longitude":-94.351646,"precincts":"mnleg-results-geo.json","overlay":"house2022.json","name":"State House District 19A"},
{"index":47,"office":"mnleg","district":"19B","latitude":46.607469,"longitude":-94.351646,"precincts":"mnleg-results-geo.json","overlay":"house2022.json","name":"State House District 19B"},
{"index":48,"office":"mnleg","district":"20A","latitude":46.607469,"longitude":-94.351646,"precincts":"mnleg-results-geo.json","overlay":"house2022.json","name":"State House District 20A"},
{"index":49,"office":"mnleg","district":"20B","latitude":46.607469,"longitude":-94.351646,"precincts":"mnleg-results-geo.json","overlay":"house2022.json","name":"State House District 20B"},
{"index":50,"office":"mnleg","district":"21A","latitude":46.607469,"longitude":-94.351646,"precincts":"mnleg-results-geo.json","overlay":"house2022.json","name":"State House District 21A"},
{"index":51,"office":"mnleg","district":"21B","latitude":46.607469,"longitude":-94.351646,"precincts":"mnleg-results-geo.json","overlay":"house2022.json","name":"State House District 21B"},
{"index":52,"office":"mnleg","district":"22A","latitude":46.607469,"longitude":-94.351646,"precincts":"mnleg-results-geo.json","overlay":"house2022.json","name":"State House District 22A"},
{"index":53,"office":"mnleg","district":"22B","latitude":46.607469,"longitude":-94.351646,"precincts":"mnleg-results-geo.json","overlay":"house2022.json","name":"State House District 22B"},
{"index":54,"office":"mnleg","district":"23A","latitude":46.607469,"longitude":-94.351646,"precincts":"mnleg-results-geo.json","overlay":"house2022.json","name":"State House District 23A"},
{"index":55,"office":"mnleg","district":"23B","latitude":46.607469,"longitude":-94.351646,"precincts":"mnleg-results-geo.json","overlay":"house2022.json","name":"State House District 23B"},
{"index":56,"office":"mnleg","district":"24A","latitude":46.607469,"longitude":-94.351646,"precincts":"mnleg-results-geo.json","overlay":"house2022.json","name":"State House District 24A"},
{"index":57,"office":"mnleg","district":"24B","latitude":46.607469,"longitude":-94.351646,"precincts":"mnleg-results-geo.json","overlay":"house2022.json","name":"State House District 24B"},
{"index":58,"office":"mnleg","district":"25A","latitude":46.607469,"longitude":-94.351646,"precincts":"mnleg-results-geo.json","overlay":"house2022.json","name":"State House District 25A"},
{"index":59,"office":"mnleg","district":"25B","latitude":46.607469,"longitude":-94.351646,"precincts":"mnleg-results-geo.json","overlay":"house2022.json","name":"State House District 25B"},
{"index":60,"office":"mnleg","district":"26A","latitude":46.607469,"longitude":-94.351646,"precincts":"mnleg-results-geo.json","overlay":"house2022.json","name":"State House District 26A"},
{"index":61,"office":"mnleg","district":"26B","latitude":46.607469,"longitude":-94.351646,"precincts":"mnleg-results-geo.json","overlay":"house2022.json","name":"State House District 26B"},
{"index":62,"office":"mnleg","district":"27A","latitude":46.607469,"longitude":-94.351646,"precincts":"mnleg-results-geo.json","overlay":"house2022.json","name":"State House District 27A"},
{"index":63,"office":"mnleg","district":"27B","latitude":46.607469,"longitude":-94.351646,"precincts":"mnleg-results-geo.json","overlay":"house2022.json","name":"State House District 27B"},
{"index":64,"office":"mnleg","district":"28A","latitude":46.607469,"longitude":-94.351646,"precincts":"mnleg-results-geo.json","overlay":"house2022.json","name":"State House District 28A"},
{"index":65,"office":"mnleg","district":"28B","latitude":46.607469,"longitude":-94.351646,"precincts":"mnleg-results-geo.json","overlay":"house2022.json","name":"State House District 28B"},
{"index":66,"office":"mnleg","district":"29A","latitude":46.607469,"longitude":-94.351646,"precincts":"mnleg-results-geo.json","overlay":"house2022.json","name":"State House District 29A"},
{"index":67,"office":"mnleg","district":"29B","latitude":46.607469,"longitude":-94.351646,"precincts":"mnleg-results-geo.json","overlay":"house2022.json","name":"State House District 29B"},
{"index":68,"office":"mnleg","district":"30A","latitude":46.607469,"longitude":-94.351646,"precincts":"mnleg-results-geo.json","overlay":"house2022.json","name":"State House District 30A"},
{"index":69,"office":"mnleg","district":"30B","latitude":46.607469,"longitude":-94.351646,"precincts":"mnleg-results-geo.json","overlay":"house2022.json","name":"State House District 30B"},
{"index":70,"office":"mnleg","district":"31A","latitude":46.607469,"longitude":-94.351646,"precincts":"mnleg-results-geo.json","overlay":"house2022.json","name":"State House District 31A"},
{"index":71,"office":"mnleg","district":"31B","latitude":46.607469,"longitude":-94.351646,"precincts":"mnleg-results-geo.json","overlay":"house2022.json","name":"State House District 31B"},
{"index":72,"office":"mnleg","district":"32A","latitude":46.607469,"longitude":-94.351646,"precincts":"mnleg-results-geo.json","overlay":"house2022.json","name":"State House District 32A"},
{"index":73,"office":"mnleg","district":"32B","latitude":46.607469,"longitude":-94.351646,"precincts":"mnleg-results-geo.json","overlay":"house2022.json","name":"State House District 32B"},
{"index":74,"office":"mnleg","district":"33A","latitude":46.607469,"longitude":-94.351646,"precincts":"mnleg-results-geo.json","overlay":"house2022.json","name":"State House District 33A"},
{"index":75,"office":"mnleg","district":"33B","latitude":46.607469,"longitude":-94.351646,"precincts":"mnleg-results-geo.json","overlay":"house2022.json","name":"State House District 33B"},
{"index":76,"office":"mnleg","district":"34A","latitude":46.607469,"longitude":-94.351646,"precincts":"mnleg-results-geo.json","overlay":"house2022.json","name":"State House District 34A"},
{"index":77,"office":"mnleg","district":"34B","latitude":46.607469,"longitude":-94.351646,"precincts":"mnleg-results-geo.json","overlay":"house2022.json","name":"State House District 34B"},
{"index":78,"office":"mnleg","district":"35A","latitude":46.607469,"longitude":-94.351646,"precincts":"mnleg-results-geo.json","overlay":"house2022.json","name":"State House District 35A"},
{"index":79,"office":"mnleg","district":"35B","latitude":46.607469,"longitude":-94.351646,"precincts":"mnleg-results-geo.json","overlay":"house2022.json","name":"State House District 35B"},
{"index":80,"office":"mnleg","district":"36A","latitude":46.607469,"longitude":-94.351646,"precincts":"mnleg-results-geo.json","overlay":"house2022.json","name":"State House District 36A"},
{"index":81,"office":"mnleg","district":"36B","latitude":46.607469,"longitude":-94.351646,"precincts":"mnleg-results-geo.json","overlay":"house2022.json","name":"State House District 36B"},
{"index":82,"office":"mnleg","district":"37A","latitude":46.607469,"longitude":-94.351646,"precincts":"mnleg-results-geo.json","overlay":"house2022.json","name":"State House District 37A"},
{"index":83,"office":"mnleg","district":"37B","latitude":46.607469,"longitude":-94.351646,"precincts":"mnleg-results-geo.json","overlay":"house2022.json","name":"State House District 37B"},
{"index":84,"office":"mnleg","district":"38A","latitude":46.607469,"longitude":-94.351646,"precincts":"mnleg-results-geo.json","overlay":"house2022.json","name":"State House District 38A"},
{"index":85,"office":"mnleg","district":"38B","latitude":46.607469,"longitude":-94.351646,"precincts":"mnleg-results-geo.json","overlay":"house2022.json","name":"State House District 38B"},
{"index":86,"office":"mnleg","district":"39A","latitude":46.607469,"longitude":-94.351646,"precincts":"mnleg-results-geo.json","overlay":"house2022.json","name":"State House District 39A"},
{"index":87,"office":"mnleg","district":"39B","latitude":46.607469,"longitude":-94.351646,"precincts":"mnleg-results-geo.json","overlay":"house2022.json","name":"State House District 39B"},
{"index":88,"office":"mnleg","district":"40A","latitude":46.607469,"longitude":-94.351646,"precincts":"mnleg-results-geo.json","overlay":"house2022.json","name":"State House District 40A"},
{"index":89,"office":"mnleg","district":"40B","latitude":46.607469,"longitude":-94.351646,"precincts":"mnleg-results-geo.json","overlay":"house2022.json","name":"State House District 40B"},
{"index":90,"office":"mnleg","district":"41A","latitude":46.607469,"longitude":-94.351646,"precincts":"mnleg-results-geo.json","overlay":"house2022.json","name":"State House District 41A"},
{"index":91,"office":"mnleg","district":"41B","latitude":46.607469,"longitude":-94.351646,"precincts":"mnleg-results-geo.json","overlay":"house2022.json","name":"State House District 41B"},
{"index":92,"office":"mnleg","district":"42A","latitude":46.607469,"longitude":-94.351646,"precincts":"mnleg-results-geo.json","overlay":"house2022.json","name":"State House District 42A"},
{"index":93,"office":"mnleg","district":"42B","latitude":46.607469,"longitude":-94.351646,"precincts":"mnleg-results-geo.json","overlay":"house2022.json","name":"State House District 42B"},
{"index":94,"office":"mnleg","district":"43A","latitude":46.607469,"longitude":-94.351646,"precincts":"mnleg-results-geo.json","overlay":"house2022.json","name":"State House District 43A"},
{"index":95,"office":"mnleg","district":"43B","latitude":46.607469,"longitude":-94.351646,"precincts":"mnleg-results-geo.json","overlay":"house2022.json","name":"State House District 43B"},
{"index":96,"office":"mnleg","district":"44A","latitude":46.607469,"longitude":-94.351646,"precincts":"mnleg-results-geo.json","overlay":"house2022.json","name":"State House District 44A"},
{"index":97,"office":"mnleg","district":"44B","latitude":46.607469,"longitude":-94.351646,"precincts":"mnleg-results-geo.json","overlay":"house2022.json","name":"State House District 44B"},
{"index":98,"office":"mnleg","district":"45A","latitude":46.607469,"longitude":-94.351646,"precincts":"mnleg-results-geo.json","overlay":"house2022.json","name":"State House District 45A"},
{"index":99,"office":"mnleg","district":"45B","latitude":46.607469,"longitude":-94.351646,"precincts":"mnleg-results-geo.json","overlay":"house2022.json","name":"State House District 45B"},
{"index":100,"office":"mnleg","district":"46A","latitude":46.607469,"longitude":-94.351646,"precincts":"mnleg-results-geo.json","overlay":"house2022.json","name":"State House District 46A"},
{"index":101,"office":"mnleg","district":"46B","latitude":46.607469,"longitude":-94.351646,"precincts":"mnleg-results-geo.json","overlay":"house2022.json","name":"State House District 46B"},
{"index":102,"office":"mnleg","district":"47A","latitude":46.607469,"longitude":-94.351646,"precincts":"mnleg-results-geo.json","overlay":"house2022.json","name":"State House District 47A"},
{"index":103,"office":"mnleg","district":"47B","latitude":46.607469,"longitude":-94.351646,"precincts":"mnleg-results-geo.json","overlay":"house2022.json","name":"State House District 47B"},
{"index":104,"office":"mnleg","district":"48A","latitude":46.607469,"longitude":-94.351646,"precincts":"mnleg-results-geo.json","overlay":"house2022.json","name":"State House District 48A"},
{"index":105,"office":"mnleg","district":"48B","latitude":46.607469,"longitude":-94.351646,"precincts":"mnleg-results-geo.json","overlay":"house2022.json","name":"State House District 48B"},
{"index":106,"office":"mnleg","district":"49A","latitude":46.607469,"longitude":-94.351646,"precincts":"mnleg-results-geo.json","overlay":"house2022.json","name":"State House District 49A"},
{"index":107,"office":"mnleg","district":"49B","latitude":46.607469,"longitude":-94.351646,"precincts":"mnleg-results-geo.json","overlay":"house2022.json","name":"State House District 49B"},
{"index":108,"office":"mnleg","district":"50A","latitude":46.607469,"longitude":-94.351646,"precincts":"mnleg-results-geo.json","overlay":"house2022.json","name":"State House District 50A"},
{"index":109,"office":"mnleg","district":"50B","latitude":46.607469,"longitude":-94.351646,"precincts":"mnleg-results-geo.json","overlay":"house2022.json","name":"State House District 50B"},
{"index":110,"office":"mnleg","district":"51A","latitude":46.607469,"longitude":-94.351646,"precincts":"mnleg-results-geo.json","overlay":"house2022.json","name":"State House District 51A"},
{"index":111,"office":"mnleg","district":"51B","latitude":46.607469,"longitude":-94.351646,"precincts":"mnleg-results-geo.json","overlay":"house2022.json","name":"State House District 51B"},
{"index":112,"office":"mnleg","district":"52A","latitude":46.607469,"longitude":-94.351646,"precincts":"mnleg-results-geo.json","overlay":"house2022.json","name":"State House District 52A"},
{"index":113,"office":"mnleg","district":"52B","latitude":46.607469,"longitude":-94.351646,"precincts":"mnleg-results-geo.json","overlay":"house2022.json","name":"State House District 52B"},
{"index":114,"office":"mnleg","district":"53A","latitude":46.607469,"longitude":-94.351646,"precincts":"mnleg-results-geo.json","overlay":"house2022.json","name":"State House District 53A"},
{"index":115,"office":"mnleg","district":"53B","latitude":46.607469,"longitude":-94.351646,"precincts":"mnleg-results-geo.json","overlay":"house2022.json","name":"State House District 53B"},
{"index":116,"office":"mnleg","district":"54A","latitude":46.607469,"longitude":-94.351646,"precincts":"mnleg-results-geo.json","overlay":"house2022.json","name":"State House District 54A"},
{"index":117,"office":"mnleg","district":"54B","latitude":46.607469,"longitude":-94.351646,"precincts":"mnleg-results-geo.json","overlay":"house2022.json","name":"State House District 54B"},
{"index":118,"office":"mnleg","district":"55A","latitude":46.607469,"longitude":-94.351646,"precincts":"mnleg-results-geo.json","overlay":"house2022.json","name":"State House District 55A"},
{"index":119,"office":"mnleg","district":"55B","latitude":46.607469,"longitude":-94.351646,"precincts":"mnleg-results-geo.json","overlay":"house2022.json","name":"State House District 55B"},
{"index":120,"office":"mnleg","district":"56A","latitude":46.607469,"longitude":-94.351646,"precincts":"mnleg-results-geo.json","overlay":"house2022.json","name":"State House District 56A"},
{"index":121,"office":"mnleg","district":"56B","latitude":46.607469,"longitude":-94.351646,"precincts":"mnleg-results-geo.json","overlay":"house2022.json","name":"State House District 56B"},
{"index":122,"office":"mnleg","district":"57A","latitude":46.607469,"longitude":-94.351646,"precincts":"mnleg-results-geo.json","overlay":"house2022.json","name":"State House District 57A"},
{"index":123,"office":"mnleg","district":"57B","latitude":46.607469,"longitude":-94.351646,"precincts":"mnleg-results-geo.json","overlay":"house2022.json","name":"State House District 57B"},
{"index":124,"office":"mnleg","district":"58A","latitude":46.607469,"longitude":-94.351646,"precincts":"mnleg-results-geo.json","overlay":"house2022.json","name":"State House District 58A"},
{"index":125,"office":"mnleg","district":"58B","latitude":46.607469,"longitude":-94.351646,"precincts":"mnleg-results-geo.json","overlay":"house2022.json","name":"State House District 58B"},
{"index":126,"office":"mnleg","district":"59A","latitude":46.607469,"longitude":-94.351646,"precincts":"mnleg-results-geo.json","overlay":"house2022.json","name":"State House District 59A"},
{"index":127,"office":"mnleg","district":"59B","latitude":46.607469,"longitude":-94.351646,"precincts":"mnleg-results-geo.json","overlay":"house2022.json","name":"State House District 59B"},
{"index":128,"office":"mnleg","district":"60A","latitude":46.607469,"longitude":-94.351646,"precincts":"mnleg-results-geo.json","overlay":"house2022.json","name":"State House District 60A"},
{"index":129,"office":"mnleg","district":"60B","latitude":46.607469,"longitude":-94.351646,"precincts":"mnleg-results-geo.json","overlay":"house2022.json","name":"State House District 60B"},
{"index":130,"office":"mnleg","district":"61A","latitude":46.607469,"longitude":-94.351646,"precincts":"mnleg-results-geo.json","overlay":"house2022.json","name":"State House District 61A"},
{"index":131,"office":"mnleg","district":"61B","latitude":46.607469,"longitude":-94.351646,"precincts":"mnleg-results-geo.json","overlay":"house2022.json","name":"State House District 61B"},
{"index":132,"office":"mnleg","district":"62A","latitude":46.607469,"longitude":-94.351646,"precincts":"mnleg-results-geo.json","overlay":"house2022.json","name":"State House District 62A"},
{"index":133,"office":"mnleg","district":"62B","latitude":46.607469,"longitude":-94.351646,"precincts":"mnleg-results-geo.json","overlay":"house2022.json","name":"State House District 62B"},
{"index":134,"office":"mnleg","district":"63A","latitude":46.607469,"longitude":-94.351646,"precincts":"mnleg-results-geo.json","overlay":"house2022.json","name":"State House District 63A"},
{"index":135,"office":"mnleg","district":"63B","latitude":46.607469,"longitude":-94.351646,"precincts":"mnleg-results-geo.json","overlay":"house2022.json","name":"State House District 63B"},
{"index":136,"office":"mnleg","district":"64A","latitude":46.607469,"longitude":-94.351646,"precincts":"mnleg-results-geo.json","overlay":"house2022.json","name":"State House District 64A"},
{"index":137,"office":"mnleg","district":"64B","latitude":46.607469,"longitude":-94.351646,"precincts":"mnleg-results-geo.json","overlay":"house2022.json","name":"State House District 64B"},
{"index":138,"office":"mnleg","district":"65A","latitude":46.607469,"longitude":-94.351646,"precincts":"mnleg-results-geo.json","overlay":"house2022.json","name":"State House District 65A"},
{"index":139,"office":"mnleg","district":"65B","latitude":46.607469,"longitude":-94.351646,"precincts":"mnleg-results-geo.json","overlay":"house2022.json","name":"State House District 65B"},
{"index":140,"office":"mnleg","district":"66A","latitude":46.607469,"longitude":-94.351646,"precincts":"mnleg-results-geo.json","overlay":"house2022.json","name":"State House District 66A"},
{"index":141,"office":"mnleg","district":"66B","latitude":46.607469,"longitude":-94.351646,"precincts":"mnleg-results-geo.json","overlay":"house2022.json","name":"State House District 66B"},
{"index":142,"office":"mnleg","district":"67A","latitude":46.607469,"longitude":-94.351646,"precincts":"mnleg-results-geo.json","overlay":"house2022.json","name":"State House District 67A"},
{"index":143,"office":"mnleg","district":"67B","latitude":46.607469,"longitude":-94.351646,"precincts":"mnleg-results-geo.json","overlay":"house2022.json","name":"State House District 67B"},
{"index":144,"office":"mnsen","district":"45","latitude":46.607469,"longitude":-94.351646,"precincts":"mnsen-results-geo.json","overlay":"senate2022.json","name":"Senate District 45"},
{"index":145,"office":"ballot","district":"0","latitude":46.607469,"longitude":-94.351646,"precincts":"ballot-results-geo.json","overlay":"counties.json","name":"Constitutional Amendment Ballot Question"}]